{
  "type": "FeatureCollection",
  "generator": "overpass-turbo",
  "copyright": "The data included in this document is from www.openstreetmap.org. The data is made available under ODbL.",
  "timestamp": "2025-11-12T18:30:28Z",
  "features": [
    {
      "type": "Feature",
      "properties": {
        "@id": "node/308894803",
        "amenity": "restaurant",
        "created_by": "Potlatch 0.10f"
      },
      "geometry": {
        "type": "Point",
        "coordinates": [
          77.2299189,
          28.6069461
        ]
      },
      "id": "node/308894803"
    },
    {
      "type": "Feature",
      "properties": {
        "@id": "node/438049083",
        "amenity": "restaurant",
        "name": "Flavours Restaurant"
      },
      "geometry": {
        "type": "Point",
        "coordinates": [
          77.2340571,
          28.5663466
        ]
      },
      "id": "node/438049083"
    },
    {
      "type": "Feature",
      "properties": {
        "@id": "node/449452338",
        "amenity": "restaurant"
      },
      "geometry": {
        "type": "Point",
        "coordinates": [
          77.1611109,
          28.5192021
        ]
      },
      "id": "node/449452338"
    },
    {
      "type": "Feature",
      "properties": {
        "@id": "node/449453229",
        "amenity": "restaurant",
        "name": "Nirula's"
      },
      "geometry": {
        "type": "Point",
        "coordinates": [
          77.1655706,
          28.522664
        ]
      },
      "id": "node/449453229"
    },
    {
      "type": "Feature",
      "properties": {
        "@id": "node/544510362",
        "amenity": "restaurant",
        "name": "Aggarwal Sweets"
      },
      "geometry": {
        "type": "Point",
        "coordinates": [
          77.2145639,
          28.5342313
        ]
      },
      "id": "node/544510362"
    },
    {
      "type": "Feature",
      "properties": {
        "@id": "node/544510428",
        "amenity": "restaurant",
        "name": "Raju Dhaba"
      },
      "geometry": {
        "type": "Point",
        "coordinates": [
          77.2179083,
          28.5308092
        ]
      },
      "id": "node/544510428"
    },
    {
      "type": "Feature",
      "properties": {
        "@id": "node/560417307",
        "amenity": "restaurant",
        "name": "Sagar Ratna"
      },
      "geometry": {
        "type": "Point",
        "coordinates": [
          77.2118299,
          28.5369219
        ]
      },
      "id": "node/560417307"
    },
    {
      "type": "Feature",
      "properties": {
        "@id": "node/599901621",
        "amenity": "restaurant",
        "cuisine": "south indian",
        "name": "Sagarrathna"
      },
      "geometry": {
        "type": "Point",
        "coordinates": [
          77.1037651,
          28.6740388
        ]
      },
      "id": "node/599901621"
    },
    {
      "type": "Feature",
      "properties": {
        "@id": "node/762031785",
        "amenity": "restaurant",
        "name": "Aggarwal Restaurant"
      },
      "geometry": {
        "type": "Point",
        "coordinates": [
          77.0352522,
          28.7988933
        ]
      },
      "id": "node/762031785"
    },
    {
      "type": "Feature",
      "properties": {
        "@id": "node/928550280",
        "amenity": "restaurant",
        "cuisine": "international",
        "diet:vegetarian": "yes",
        "name": "Hotel Metropolis",
        "outdoor_seating": "yes",
        "tourism": "hotel"
      },
      "geometry": {
        "type": "Point",
        "coordinates": [
          77.2105994,
          28.6407045
        ]
      },
      "id": "node/928550280"
    },
    {
      "type": "Feature",
      "properties": {
        "@id": "node/928567979",
        "amenity": "restaurant",
        "diet:vegan": "yes",
        "diet:vegetarian": "yes",
        "disused": "yes",
        "name": "Piccadelhi"
      },
      "geometry": {
        "type": "Point",
        "coordinates": [
          77.2196937,
          28.635243
        ]
      },
      "id": "node/928567979"
    },
    {
      "type": "Feature",
      "properties": {
        "@id": "node/993721944",
        "amenity": "bar",
        "name": "Fire & Ice"
      },
      "geometry": {
        "type": "Point",
        "coordinates": [
          77.0580608,
          28.590917
        ]
      },
      "id": "node/993721944"
    },
    {
      "type": "Feature",
      "properties": {
        "@id": "node/1179282274",
        "amenity": "restaurant",
        "name": "Aangan Restuarant"
      },
      "geometry": {
        "type": "Point",
        "coordinates": [
          77.0652214,
          28.6361048
        ]
      },
      "id": "node/1179282274"
    },
    {
      "type": "Feature",
      "properties": {
        "@id": "node/1241932078",
        "amenity": "restaurant",
        "ele": "235.41",
        "name": "Bangla Foods",
        "source:ele": "gpx"
      },
      "geometry": {
        "type": "Point",
        "coordinates": [
          77.2083619,
          28.6333595
        ]
      },
      "id": "node/1241932078"
    },
    {
      "type": "Feature",
      "properties": {
        "@id": "node/1374470951",
        "amenity": "restaurant"
      },
      "geometry": {
        "type": "Point",
        "coordinates": [
          77.0919202,
          28.6234479
        ]
      },
      "id": "node/1374470951"
    },
    {
      "type": "Feature",
      "properties": {
        "@id": "node/1414804432",
        "amenity": "restaurant",
        "name": "Agarwal Sweet Place"
      },
      "geometry": {
        "type": "Point",
        "coordinates": [
          77.2842171,
          28.6653614
        ]
      },
      "id": "node/1414804432"
    },
    {
      "type": "Feature",
      "properties": {
        "@id": "node/1431223466",
        "amenity": "restaurant",
        "diet:vegetarian": "only",
        "name": "Bai Dur Ya"
      },
      "geometry": {
        "type": "Point",
        "coordinates": [
          77.2283038,
          28.7035418
        ]
      },
      "id": "node/1431223466"
    },
    {
      "type": "Feature",
      "properties": {
        "@id": "node/1431224461",
        "amenity": "bar",
        "name": "Juice"
      },
      "geometry": {
        "type": "Point",
        "coordinates": [
          77.2265694,
          28.6998789
        ]
      },
      "id": "node/1431224461"
    },
    {
      "type": "Feature",
      "properties": {
        "@id": "node/1431224462",
        "amenity": "bar",
        "name": "Milk"
      },
      "geometry": {
        "type": "Point",
        "coordinates": [
          77.2271676,
          28.7000437
        ]
      },
      "id": "node/1431224462"
    },
    {
      "type": "Feature",
      "properties": {
        "@id": "node/1442029370",
        "amenity": "restaurant"
      },
      "geometry": {
        "type": "Point",
        "coordinates": [
          77.2688316,
          28.5622333
        ]
      },
      "id": "node/1442029370"
    },
    {
      "type": "Feature",
      "properties": {
        "@id": "node/1442029478",
        "amenity": "restaurant",
        "cuisine": "indian",
        "name": "Dawat Khana Restaurant"
      },
      "geometry": {
        "type": "Point",
        "coordinates": [
          77.2686705,
          28.562363
        ]
      },
      "id": "node/1442029478"
    },
    {
      "type": "Feature",
      "properties": {
        "@id": "node/1556466158",
        "addr:city": "New Delhi",
        "amenity": "restaurant",
        "cuisine": "thai",
        "name": "Spice Route"
      },
      "geometry": {
        "type": "Point",
        "coordinates": [
          77.2181175,
          28.6253844
        ]
      },
      "id": "node/1556466158"
    },
    {
      "type": "Feature",
      "properties": {
        "@id": "node/1556467803",
        "amenity": "restaurant",
        "cuisine": "thai",
        "name": "Good Earth",
        "website": "https://www.goodearth.in/"
      },
      "geometry": {
        "type": "Point",
        "coordinates": [
          77.226395,
          28.5995254
        ]
      },
      "id": "node/1556467803"
    },
    {
      "type": "Feature",
      "properties": {
        "@id": "node/1563325267",
        "amenity": "restaurant",
        "name": "Nathus Sweets"
      },
      "geometry": {
        "type": "Point",
        "coordinates": [
          77.2320267,
          28.6297269
        ]
      },
      "id": "node/1563325267"
    },
    {
      "type": "Feature",
      "properties": {
        "@id": "node/1563325307",
        "amenity": "restaurant",
        "cuisine": "north_indian;south_indian;chinese",
        "name": "Bengali Sweet House",
        "phone": "+91-11-2335-3310;+91-11-2331-9224",
        "tables": "18"
      },
      "geometry": {
        "type": "Point",
        "coordinates": [
          77.2318985,
          28.629465
        ]
      },
      "id": "node/1563325307"
    },
    {
      "type": "Feature",
      "properties": {
        "@id": "node/1582385446",
        "amenity": "restaurant",
        "cuisine": "regional"
      },
      "geometry": {
        "type": "Point",
        "coordinates": [
          77.1328702,
          28.5384129
        ]
      },
      "id": "node/1582385446"
    },
    {
      "type": "Feature",
      "properties": {
        "@id": "node/1772533341",
        "amenity": "restaurant",
        "name": "Tyagi Restaurant"
      },
      "geometry": {
        "type": "Point",
        "coordinates": [
          76.9857968,
          28.6131958
        ]
      },
      "id": "node/1772533341"
    },
    {
      "type": "Feature",
      "properties": {
        "@id": "node/1792704234",
        "amenity": "restaurant"
      },
      "geometry": {
        "type": "Point",
        "coordinates": [
          76.9840106,
          28.6170799
        ]
      },
      "id": "node/1792704234"
    },
    {
      "type": "Feature",
      "properties": {
        "@id": "node/1792722316",
        "amenity": "restaurant",
        "name": "Agarwal Sweet Corner"
      },
      "geometry": {
        "type": "Point",
        "coordinates": [
          76.9853973,
          28.6096134
        ]
      },
      "id": "node/1792722316"
    },
    {
      "type": "Feature",
      "properties": {
        "@id": "node/1792774316",
        "amenity": "restaurant"
      },
      "geometry": {
        "type": "Point",
        "coordinates": [
          76.9840696,
          28.6174849
        ]
      },
      "id": "node/1792774316"
    },
    {
      "type": "Feature",
      "properties": {
        "@id": "node/1795902652",
        "amenity": "restaurant",
        "cuisine": "chinese"
      },
      "geometry": {
        "type": "Point",
        "coordinates": [
          77.2467816,
          28.5668787
        ]
      },
      "id": "node/1795902652"
    },
    {
      "type": "Feature",
      "properties": {
        "@id": "node/1811342230",
        "amenity": "restaurant"
      },
      "geometry": {
        "type": "Point",
        "coordinates": [
          76.9074736,
          28.5705375
        ]
      },
      "id": "node/1811342230"
    },
    {
      "type": "Feature",
      "properties": {
        "@id": "node/1833070236",
        "amenity": "restaurant",
        "name": "Culinaire"
      },
      "geometry": {
        "type": "Point",
        "coordinates": [
          77.2457792,
          28.5307368
        ]
      },
      "id": "node/1833070236"
    },
    {
      "type": "Feature",
      "properties": {
        "@id": "node/1837410841",
        "amenity": "restaurant",
        "cuisine": "indian",
        "name": "Zooby's Kitchen,Al-Bake"
      },
      "geometry": {
        "type": "Point",
        "coordinates": [
          77.3058508,
          28.5455297
        ]
      },
      "id": "node/1837410841"
    },
    {
      "type": "Feature",
      "properties": {
        "@id": "node/1940318525",
        "amenity": "restaurant",
        "name": "Club India Restaurant"
      },
      "geometry": {
        "type": "Point",
        "coordinates": [
          77.2137081,
          28.6409319
        ]
      },
      "id": "node/1940318525"
    },
    {
      "type": "Feature",
      "properties": {
        "@id": "node/1940318549",
        "amenity": "restaurant",
        "name": "New Mt. Everest Restaurant"
      },
      "geometry": {
        "type": "Point",
        "coordinates": [
          77.213836,
          28.641034
        ]
      },
      "id": "node/1940318549"
    },
    {
      "type": "Feature",
      "properties": {
        "@id": "node/1966254717",
        "addr:housenumber": "1",
        "addr:street": "Ashoka Road, New Delhi",
        "amenity": "restaurant",
        "cuisine": "asian;indian",
        "name": "Andhra Bhawan Canteen",
        "name:ru": "Кафе Andhra Pradesh Bhavan",
        "opening_hours": "Mo-Su 08:00-22:00, 00:00-15:00, 07:30-22:00"
      },
      "geometry": {
        "type": "Point",
        "coordinates": [
          77.225998,
          28.6169212
        ]
      },
      "id": "node/1966254717"
    },
    {
      "type": "Feature",
      "properties": {
        "@id": "node/2101275303",
        "amenity": "bar",
        "name": "Tripti Bar",
        "wifi": "yes"
      },
      "geometry": {
        "type": "Point",
        "coordinates": [
          77.1278858,
          28.5486023
        ]
      },
      "id": "node/2101275303"
    },
    {
      "type": "Feature",
      "properties": {
        "@id": "node/2102480338",
        "amenity": "restaurant",
        "man_made": "Ashram Dining Hall"
      },
      "geometry": {
        "type": "Point",
        "coordinates": [
          77.2009833,
          28.5393791
        ]
      },
      "id": "node/2102480338"
    },
    {
      "type": "Feature",
      "properties": {
        "@id": "node/2106101596",
        "addr:housenumber": "19",
        "addr:postcode": "110006",
        "addr:street": "Kalan Mahal Road",
        "amenity": "restaurant",
        "cuisine": "chicken;kebab;curry;indian",
        "name": "Karim's",
        "name:es": "Karim's",
        "website": "http://www.karimhoteldelhi.com",
        "wikidata": "Q17064086",
        "wikimedia_commons": "Category:Karim's",
        "wikipedia": "en:Karim's"
      },
      "geometry": {
        "type": "Point",
        "coordinates": [
          77.2337411,
          28.6494286
        ]
      },
      "id": "node/2106101596"
    },
    {
      "type": "Feature",
      "properties": {
        "@id": "node/2106110096",
        "addr:city": "Delhi",
        "addr:postcode": "110006",
        "addr:street": "Paranthe Wali Gali",
        "addr:suburb": "Chandni Chowk",
        "addr:unit": "36",
        "amenity": "restaurant",
        "contact:mobile": "+91-99-7199-7140;+91-98916-64131;+91-93507-14662",
        "cuisine": "indian;parantha",
        "level": "0",
        "name": "Pandit Kanhaiya Lal Durga Prashad Dixit Paranthe Wala",
        "name:hi": "पंडित कन्हैया लाल दुर्गा प्रशाद दीक्षित परांठे वाला",
        "outdoor_seating": "no",
        "start_date": "1875"
      },
      "geometry": {
        "type": "Point",
        "coordinates": [
          77.2303749,
          28.6560678
        ]
      },
      "id": "node/2106110096"
    },
    {
      "type": "Feature",
      "properties": {
        "@id": "node/2106114484",
        "amenity": "restaurant",
        "check_date": "2024-12-22",
        "diet:vegetarian": "only",
        "name": "Moti Mahal"
      },
      "geometry": {
        "type": "Point",
        "coordinates": [
          77.2399805,
          28.6468875
        ]
      },
      "id": "node/2106114484"
    },
    {
      "type": "Feature",
      "properties": {
        "@id": "node/2204416851",
        "addr:country": "IN",
        "amenity": "bar",
        "check_date": "2024-07-23",
        "name": "Epid"
      },
      "geometry": {
        "type": "Point",
        "coordinates": [
          77.194533,
          28.5543725
        ]
      },
      "id": "node/2204416851"
    },
    {
      "type": "Feature",
      "properties": {
        "@id": "node/2210990632",
        "addr:housename": "hehehehe",
        "amenity": "bar",
        "name": "sam ",
        "wifi": "free"
      },
      "geometry": {
        "type": "Point",
        "coordinates": [
          77.2631292,
          28.6825094
        ]
      },
      "id": "node/2210990632"
    },
    {
      "type": "Feature",
      "properties": {
        "@id": "node/2305186634",
        "amenity": "bar",
        "name": "Blue Frog"
      },
      "geometry": {
        "type": "Point",
        "coordinates": [
          77.1857585,
          28.5271355
        ]
      },
      "id": "node/2305186634"
    },
    {
      "type": "Feature",
      "properties": {
        "@id": "node/2327524028",
        "addr:city": "New Delhi",
        "amenity": "restaurant",
        "cuisine": "asian;chinese;thai",
        "name": "Berco's"
      },
      "geometry": {
        "type": "Point",
        "coordinates": [
          77.2172154,
          28.6323764
        ]
      },
      "id": "node/2327524028"
    },
    {
      "type": "Feature",
      "properties": {
        "@id": "node/2416151557",
        "amenity": "restaurant",
        "check_date": "2023-10-20",
        "level": "0",
        "name": "All American Diner",
        "outdoor_seating": "yes"
      },
      "geometry": {
        "type": "Point",
        "coordinates": [
          77.225738,
          28.589224
        ]
      },
      "id": "node/2416151557"
    },
    {
      "type": "Feature",
      "properties": {
        "@id": "node/2422518839",
        "addr:city": "New Delhi",
        "addr:housename": "50A Second Floor",
        "addr:postcode": "110017",
        "addr:street": "Hauz Khas Village Road",
        "alt_name": "Yeti",
        "amenity": "restaurant",
        "check_date": "2024-07-22",
        "cuisine": "asian",
        "name": "Lama Kitchen Himalayan Cook House",
        "phone": "+911141008883",
        "website": "https://lamakitchenhkv.wixsite.com/mysite/menu",
        "wheelchair": "no"
      },
      "geometry": {
        "type": "Point",
        "coordinates": [
          77.1942284,
          28.5536129
        ]
      },
      "id": "node/2422518839"
    },
    {
      "type": "Feature",
      "properties": {
        "@id": "node/2429556221",
        "amenity": "bar",
        "name": "RPM",
        "opening_hours": "Mo-Su 12:00-01:00"
      },
      "geometry": {
        "type": "Point",
        "coordinates": [
          77.164158,
          28.5575936
        ]
      },
      "id": "node/2429556221"
    },
    {
      "type": "Feature",
      "properties": {
        "@id": "node/2429556253",
        "amenity": "restaurant",
        "brand": "Pizza Hut",
        "brand:wikidata": "Q191615",
        "brand:wikipedia": "en:Pizza Hut",
        "contact:phone": "+91-11-3988-3988",
        "cuisine": "pizza",
        "name": "Pizza Hut",
        "wheelchair": "no"
      },
      "geometry": {
        "type": "Point",
        "coordinates": [
          77.1640349,
          28.5575626
        ]
      },
      "id": "node/2429556253"
    },
    {
      "type": "Feature",
      "properties": {
        "@id": "node/2443106660",
        "amenity": "restaurant",
        "name": "The Great Kebab Factory"
      },
      "geometry": {
        "type": "Point",
        "coordinates": [
          77.1339317,
          28.6705911
        ]
      },
      "id": "node/2443106660"
    },
    {
      "type": "Feature",
      "properties": {
        "@id": "node/2445476886",
        "amenity": "nightclub",
        "name": "Trance Lounge"
      },
      "geometry": {
        "type": "Point",
        "coordinates": [
          77.099729,
          28.6786445
        ]
      },
      "id": "node/2445476886"
    },
    {
      "type": "Feature",
      "properties": {
        "@id": "node/2453781130",
        "addr:postcode": "110074",
        "addr:street": "Chattarpur Main Road",
        "amenity": "restaurant",
        "cuisine": "indian",
        "name": "Ajit Khalsa Dhaba",
        "phone": "+911126801804"
      },
      "geometry": {
        "type": "Point",
        "coordinates": [
          77.1846642,
          28.4965669
        ]
      },
      "id": "node/2453781130"
    },
    {
      "type": "Feature",
      "properties": {
        "@id": "node/2591114289",
        "addr:city": "New Delhi",
        "addr:housename": "Mohan Singh Place",
        "addr:postcode": "110001",
        "addr:street": "Baba Kharak Singh Marg",
        "addr:suburb": "Connaught Place",
        "amenity": "restaurant",
        "brand": "Indian Coffee House",
        "brand:wikidata": "Q3595301",
        "check_date": "2024-12-23",
        "contact:phone": "+91-11-2334-2994",
        "cuisine": "coffee_shop;indian",
        "diet:vegetarian": "yes",
        "level": "2",
        "name": "Indian Coffee House",
        "opening_hours": "08:30-21:00",
        "operator": "Indian Coffee Workers' Cooperative Society Limited",
        "outdoor_seating": "yes",
        "reservation": "no",
        "service:electricity": "ask",
        "start_date": "1957",
        "website": "http://indiancoffeehouse.com/",
        "wheelchair": "yes"
      },
      "geometry": {
        "type": "Point",
        "coordinates": [
          77.2160507,
          28.6306895
        ]
      },
      "id": "node/2591114289"
    },
    {
      "type": "Feature",
      "properties": {
        "@id": "node/2592537223",
        "addr:postcode": "110001",
        "air_conditioning": "yes",
        "amenity": "restaurant",
        "cuisine": "pizza;indian;burger;italian;chinese;sandwich;coffee_shop",
        "delivery": "yes",
        "diet:vegan": "yes",
        "diet:vegetarian": "yes",
        "name": "Hira Sweets",
        "opening_hours": "Mo-Su 08:00-23:00",
        "phone": "+91-97736 13336",
        "takeaway": "yes"
      },
      "geometry": {
        "type": "Point",
        "coordinates": [
          77.220063,
          28.6353527
        ]
      },
      "id": "node/2592537223"
    },
    {
      "type": "Feature",
      "properties": {
        "@id": "node/2592537225",
        "amenity": "restaurant",
        "name": "Sayam Roof Top Restaurant"
      },
      "geometry": {
        "type": "Point",
        "coordinates": [
          77.2137445,
          28.6411417
        ]
      },
      "id": "node/2592537225"
    },
    {
      "type": "Feature",
      "properties": {
        "@id": "node/2709534496",
        "addr:city": "New Delhi",
        "addr:postcode": "110001",
        "addr:street": "Radial Road 6",
        "amenity": "restaurant",
        "capacity": "50",
        "name": "Keshav Restaurant",
        "opening_hours": "Mo-Su 10:00-18:00",
        "phone": "+91-90154-84272"
      },
      "geometry": {
        "type": "Point",
        "coordinates": [
          77.2230833,
          28.6337495
        ]
      },
      "id": "node/2709534496"
    },
    {
      "type": "Feature",
      "properties": {
        "@id": "node/3205829283",
        "amenity": "restaurant",
        "name": "ccd"
      },
      "geometry": {
        "type": "Point",
        "coordinates": [
          77.2370308,
          28.499764
        ]
      },
      "id": "node/3205829283"
    },
    {
      "type": "Feature",
      "properties": {
        "@id": "node/3242109311",
        "amenity": "restaurant",
        "cuisine": "indian",
        "name": "The Exotic Rooftop Restaurant",
        "opening_hours": "Mo-Su 08:00-23:00"
      },
      "geometry": {
        "type": "Point",
        "coordinates": [
          77.2137687,
          28.6409844
        ]
      },
      "id": "node/3242109311"
    },
    {
      "type": "Feature",
      "properties": {
        "@id": "node/3250376814",
        "amenity": "restaurant",
        "cuisine": "korean",
        "name": "쉼터",
        "name:en": "Shimtur",
        "name:fr": "Shimtur"
      },
      "geometry": {
        "type": "Point",
        "coordinates": [
          77.2132453,
          28.6414451
        ]
      },
      "id": "node/3250376814"
    },
    {
      "type": "Feature",
      "properties": {
        "@id": "node/3250377275",
        "amenity": "restaurant",
        "cuisine": "chinese",
        "name": "Royal China"
      },
      "geometry": {
        "type": "Point",
        "coordinates": [
          77.2517872,
          28.5501843
        ]
      },
      "id": "node/3250377275"
    },
    {
      "type": "Feature",
      "properties": {
        "@id": "node/3269429079",
        "addr:housenumber": "4986",
        "addr:street": "Ramdwara Road",
        "amenity": "restaurant",
        "diet:vegetarian": "yes",
        "name": "Tadka",
        "name:es": "Tadka",
        "opening_hours": "Mo-Su 09:00-22:30"
      },
      "geometry": {
        "type": "Point",
        "coordinates": [
          77.2131013,
          28.6403009
        ]
      },
      "id": "node/3269429079"
    },
    {
      "type": "Feature",
      "properties": {
        "@id": "node/3269454412",
        "amenity": "bar",
        "name": "The Gem Bar"
      },
      "geometry": {
        "type": "Point",
        "coordinates": [
          77.2160786,
          28.6415015
        ]
      },
      "id": "node/3269454412"
    },
    {
      "type": "Feature",
      "properties": {
        "@id": "node/3386169859",
        "amenity": "restaurant",
        "delivery": "yes",
        "name": "Green Chick Chop",
        "smoking": "no",
        "takeaway": "yes"
      },
      "geometry": {
        "type": "Point",
        "coordinates": [
          77.2468884,
          28.527614
        ]
      },
      "id": "node/3386169859"
    },
    {
      "type": "Feature",
      "properties": {
        "@id": "node/3386169860",
        "amenity": "restaurant",
        "cuisine": "Indian,Mughlai",
        "delivery": "yes",
        "name": "Qureshi",
        "takeaway": "yes"
      },
      "geometry": {
        "type": "Point",
        "coordinates": [
          77.2470133,
          28.5276128
        ]
      },
      "id": "node/3386169860"
    },
    {
      "type": "Feature",
      "properties": {
        "@id": "node/3386169861",
        "amenity": "restaurant",
        "cuisine": "asian",
        "delivery": "yes",
        "name": "Call it Asian",
        "short_name": "CIA",
        "takeaway": "yes",
        "toilets": "no"
      },
      "geometry": {
        "type": "Point",
        "coordinates": [
          77.2467941,
          28.5276595
        ]
      },
      "id": "node/3386169861"
    },
    {
      "type": "Feature",
      "properties": {
        "@id": "node/3390001349",
        "amenity": "restaurant",
        "cuisine": "south_indian",
        "name": "Kwality Sweets and Restaurant",
        "phone": "+91-96508-08949;+91-92125-15088"
      },
      "geometry": {
        "type": "Point",
        "coordinates": [
          77.2561701,
          28.5280616
        ]
      },
      "id": "node/3390001349"
    },
    {
      "type": "Feature",
      "properties": {
        "@id": "node/3394398827",
        "amenity": "restaurant",
        "name": "Not Just Paranthas"
      },
      "geometry": {
        "type": "Point",
        "coordinates": [
          77.2427574,
          28.5323178
        ]
      },
      "id": "node/3394398827"
    },
    {
      "type": "Feature",
      "properties": {
        "@id": "node/3395916095",
        "amenity": "restaurant"
      },
      "geometry": {
        "type": "Point",
        "coordinates": [
          77.2506614,
          28.5321582
        ]
      },
      "id": "node/3395916095"
    },
    {
      "type": "Feature",
      "properties": {
        "@id": "node/3404446540",
        "amenity": "restaurant",
        "name": "Oriental"
      },
      "geometry": {
        "type": "Point",
        "coordinates": [
          77.2471116,
          28.5277319
        ]
      },
      "id": "node/3404446540"
    },
    {
      "type": "Feature",
      "properties": {
        "@id": "node/3404446571",
        "amenity": "restaurant",
        "cuisine": "indian",
        "name": "Chehel Pehel"
      },
      "geometry": {
        "type": "Point",
        "coordinates": [
          77.234394,
          28.5400918
        ]
      },
      "id": "node/3404446571"
    },
    {
      "type": "Feature",
      "properties": {
        "@id": "node/3404446572",
        "amenity": "restaurant",
        "cuisine": "ice_cream",
        "name": "Gianis Ice Cream"
      },
      "geometry": {
        "type": "Point",
        "coordinates": [
          77.2403199,
          28.5399337
        ]
      },
      "id": "node/3404446572"
    },
    {
      "type": "Feature",
      "properties": {
        "@id": "node/3424254864",
        "amenity": "restaurant",
        "name": "Nathu Sweets"
      },
      "geometry": {
        "type": "Point",
        "coordinates": [
          77.2409575,
          28.6025805
        ]
      },
      "id": "node/3424254864"
    },
    {
      "type": "Feature",
      "properties": {
        "@id": "node/3428539645",
        "amenity": "restaurant",
        "name": "Chocolateria San Churro"
      },
      "geometry": {
        "type": "Point",
        "coordinates": [
          77.2436003,
          28.5346066
        ]
      },
      "id": "node/3428539645"
    },
    {
      "type": "Feature",
      "properties": {
        "@id": "node/3476217443",
        "amenity": "restaurant",
        "cuisine": "italian",
        "level": "2",
        "name": "Big Yellow Door",
        "toilets": "yes",
        "toilets:access": "customers"
      },
      "geometry": {
        "type": "Point",
        "coordinates": [
          77.2042477,
          28.6950985
        ]
      },
      "id": "node/3476217443"
    },
    {
      "type": "Feature",
      "properties": {
        "@id": "node/3476217629",
        "amenity": "restaurant",
        "name": "Dhobhi Mart;Rico's"
      },
      "geometry": {
        "type": "Point",
        "coordinates": [
          77.2042864,
          28.6948692
        ]
      },
      "id": "node/3476217629"
    },
    {
      "type": "Feature",
      "properties": {
        "@id": "node/3503120597",
        "addr:housenumber": "92",
        "addr:street": "Hauz Rani",
        "amenity": "restaurant",
        "name": "Afghan Restaurant"
      },
      "geometry": {
        "type": "Point",
        "coordinates": [
          77.2126175,
          28.5287087
        ]
      },
      "id": "node/3503120597"
    },
    {
      "type": "Feature",
      "properties": {
        "@id": "node/3508300432",
        "amenity": "restaurant",
        "name": "Zingo Star"
      },
      "geometry": {
        "type": "Point",
        "coordinates": [
          77.2427911,
          28.532347
        ]
      },
      "id": "node/3508300432"
    },
    {
      "type": "Feature",
      "properties": {
        "@id": "node/3508300433",
        "amenity": "bar",
        "name": "Aquarium"
      },
      "geometry": {
        "type": "Point",
        "coordinates": [
          77.2428166,
          28.5323633
        ]
      },
      "id": "node/3508300433"
    },
    {
      "type": "Feature",
      "properties": {
        "@id": "node/3508300434",
        "amenity": "restaurant",
        "cuisine": "chinese",
        "name": "China Garden"
      },
      "geometry": {
        "type": "Point",
        "coordinates": [
          77.2433094,
          28.5327962
        ]
      },
      "id": "node/3508300434"
    },
    {
      "type": "Feature",
      "properties": {
        "@id": "node/3508300435",
        "amenity": "restaurant",
        "cuisine": "indian",
        "name": "Angrezi Dhaba"
      },
      "geometry": {
        "type": "Point",
        "coordinates": [
          77.2433747,
          28.5328507
        ]
      },
      "id": "node/3508300435"
    },
    {
      "type": "Feature",
      "properties": {
        "@id": "node/3508300438",
        "amenity": "bar",
        "name": "Fusion Bar"
      },
      "geometry": {
        "type": "Point",
        "coordinates": [
          77.2429761,
          28.5333165
        ]
      },
      "id": "node/3508300438"
    },
    {
      "type": "Feature",
      "properties": {
        "@id": "node/3508300439",
        "amenity": "restaurant",
        "cuisine": "chinese",
        "name": "Hao Shi Nian Nian"
      },
      "geometry": {
        "type": "Point",
        "coordinates": [
          77.2416903,
          28.5332859
        ]
      },
      "id": "node/3508300439"
    },
    {
      "type": "Feature",
      "properties": {
        "@id": "node/3508300440",
        "amenity": "restaurant",
        "name": "Yeti"
      },
      "geometry": {
        "type": "Point",
        "coordinates": [
          77.2421395,
          28.5335921
        ]
      },
      "id": "node/3508300440"
    },
    {
      "type": "Feature",
      "properties": {
        "@id": "node/3508300441",
        "amenity": "bar",
        "name": "Uber Lounge"
      },
      "geometry": {
        "type": "Point",
        "coordinates": [
          77.2433965,
          28.5335172
        ]
      },
      "id": "node/3508300441"
    },
    {
      "type": "Feature",
      "properties": {
        "@id": "node/3508300443",
        "amenity": "bar",
        "name": "The Beer Cafe"
      },
      "geometry": {
        "type": "Point",
        "coordinates": [
          77.2434299,
          28.5344841
        ]
      },
      "id": "node/3508300443"
    },
    {
      "type": "Feature",
      "properties": {
        "@id": "node/3508300444",
        "amenity": "bar",
        "name": "Camino"
      },
      "geometry": {
        "type": "Point",
        "coordinates": [
          77.2427288,
          28.534083
        ]
      },
      "id": "node/3508300444"
    },
    {
      "type": "Feature",
      "properties": {
        "@id": "node/3523109181",
        "amenity": "restaurant",
        "cuisine": "regional",
        "name": "Aggarwal"
      },
      "geometry": {
        "type": "Point",
        "coordinates": [
          77.3358773,
          28.6117129
        ]
      },
      "id": "node/3523109181"
    },
    {
      "type": "Feature",
      "properties": {
        "@id": "node/3523110361",
        "amenity": "restaurant",
        "cuisine": "regional",
        "name": "Raj Restuarant"
      },
      "geometry": {
        "type": "Point",
        "coordinates": [
          77.3360041,
          28.6114967
        ]
      },
      "id": "node/3523110361"
    },
    {
      "type": "Feature",
      "properties": {
        "@id": "node/3523110671",
        "amenity": "restaurant",
        "cuisine": "regional",
        "name": "Bikaner"
      },
      "geometry": {
        "type": "Point",
        "coordinates": [
          77.3357988,
          28.6116229
        ]
      },
      "id": "node/3523110671"
    },
    {
      "type": "Feature",
      "properties": {
        "@id": "node/3555955507",
        "addr:city": "New delhi",
        "addr:postcode": "110009",
        "addr:street": "Indra Vihar, north delhi",
        "amenity": "restaurant",
        "name": "Miglani restaurant"
      },
      "geometry": {
        "type": "Point",
        "coordinates": [
          77.2121825,
          28.7058631
        ]
      },
      "id": "node/3555955507"
    },
    {
      "type": "Feature",
      "properties": {
        "@id": "node/3636354670",
        "amenity": "restaurant",
        "name": "Rakesh Cafeteria"
      },
      "geometry": {
        "type": "Point",
        "coordinates": [
          77.1842325,
          28.5482531
        ]
      },
      "id": "node/3636354670"
    },
    {
      "type": "Feature",
      "properties": {
        "@id": "node/3636354671",
        "amenity": "restaurant",
        "name": "Southy"
      },
      "geometry": {
        "type": "Point",
        "coordinates": [
          77.1842381,
          28.5481648
        ]
      },
      "id": "node/3636354671"
    },
    {
      "type": "Feature",
      "properties": {
        "@id": "node/3704734413",
        "addr:city": "New Delhi",
        "amenity": "restaurant",
        "brand": "Nando's",
        "brand:wikidata": "Q3472954",
        "cuisine": "chicken;portuguese",
        "diet:vegetarian": "yes",
        "name": "Nando's",
        "opening_hours": "Mo-Su 11:30-00:30"
      },
      "geometry": {
        "type": "Point",
        "coordinates": [
          77.2197896,
          28.6309879
        ]
      },
      "id": "node/3704734413"
    },
    {
      "type": "Feature",
      "properties": {
        "@id": "node/3883052658",
        "amenity": "restaurant",
        "cuisine": "indian",
        "name": "Nagaland Cafe"
      },
      "geometry": {
        "type": "Point",
        "coordinates": [
          77.2062342,
          28.5734423
        ]
      },
      "id": "node/3883052658"
    },
    {
      "type": "Feature",
      "properties": {
        "@id": "node/3991742063",
        "amenity": "bar",
        "name": "OMG Bar & Kitchen",
        "note": "nice view"
      },
      "geometry": {
        "type": "Point",
        "coordinates": [
          77.2204463,
          28.6314049
        ]
      },
      "id": "node/3991742063"
    },
    {
      "type": "Feature",
      "properties": {
        "@id": "node/4069815728",
        "addr:housename": "B",
        "addr:housenumber": "B-23",
        "addr:place": "Connaught Place",
        "addr:postcode": "110001",
        "addr:street": "Inner Circle",
        "air_conditioning": "yes",
        "amenity": "restaurant",
        "diet:vegan": "yes",
        "diet:vegetarian": "yes",
        "indoor_seating": "yes",
        "level": "0",
        "name": "The Colonnade",
        "outdoor_seating": "no",
        "smoking": "separated",
        "wheelchair": "no"
      },
      "geometry": {
        "type": "Point",
        "coordinates": [
          77.2190699,
          28.6342635
        ]
      },
      "id": "node/4069815728"
    },
    {
      "type": "Feature",
      "properties": {
        "@id": "node/4069858894",
        "amenity": "restaurant",
        "diet:vegan": "yes",
        "diet:vegetarian": "yes",
        "name": "Gola"
      },
      "geometry": {
        "type": "Point",
        "coordinates": [
          77.220127,
          28.6352724
        ]
      },
      "id": "node/4069858894"
    },
    {
      "type": "Feature",
      "properties": {
        "@id": "node/4114512206",
        "amenity": "restaurant",
        "internet_access": "wlan",
        "name": "Fat Lulu's",
        "survey:date": "2023-01-20"
      },
      "geometry": {
        "type": "Point",
        "coordinates": [
          77.2262942,
          28.5996402
        ]
      },
      "id": "node/4114512206"
    },
    {
      "type": "Feature",
      "properties": {
        "@id": "node/4122592291",
        "amenity": "restaurant",
        "name": "Odeon sweets"
      },
      "geometry": {
        "type": "Point",
        "coordinates": [
          77.2080471,
          28.6334275
        ]
      },
      "id": "node/4122592291"
    },
    {
      "type": "Feature",
      "properties": {
        "@id": "node/4123294291",
        "addr:city": "New Delhi",
        "addr:postcode": "110016",
        "addr:street": "Green Park Main Market",
        "alt_name": "A2B",
        "amenity": "restaurant",
        "brand": "Adyar Ananda Bhavan",
        "brand:wikidata": "Q15178238",
        "cuisine": "regional",
        "diet:vegetarian": "only",
        "email": "info@aabsweets.com",
        "name": "Adyar Ananda Bhavan",
        "operator": "Adyar Ananda Bhavan",
        "phone": "+91 11 4608 2303",
        "smoking": "no",
        "website": "https://aabsweets.com"
      },
      "geometry": {
        "type": "Point",
        "coordinates": [
          77.2023928,
          28.5572536
        ]
      },
      "id": "node/4123294291"
    },
    {
      "type": "Feature",
      "properties": {
        "@id": "node/4197303866",
        "amenity": "restaurant",
        "diet:vegetarian": "yes",
        "name": "Hira Sweets"
      },
      "geometry": {
        "type": "Point",
        "coordinates": [
          77.0867027,
          28.6328321
        ]
      },
      "id": "node/4197303866"
    },
    {
      "type": "Feature",
      "properties": {
        "@id": "node/4209873991",
        "amenity": "restaurant",
        "name": "Imly"
      },
      "geometry": {
        "type": "Point",
        "coordinates": [
          77.1785622,
          28.645305
        ]
      },
      "id": "node/4209873991"
    },
    {
      "type": "Feature",
      "properties": {
        "@id": "node/4211994391",
        "amenity": "restaurant",
        "name": "Malhotra"
      },
      "geometry": {
        "type": "Point",
        "coordinates": [
          77.2105515,
          28.6410445
        ]
      },
      "id": "node/4211994391"
    },
    {
      "type": "Feature",
      "properties": {
        "@id": "node/4219631340",
        "amenity": "restaurant",
        "name": "Sam's Cafe"
      },
      "geometry": {
        "type": "Point",
        "coordinates": [
          77.2126799,
          28.6410923
        ]
      },
      "id": "node/4219631340"
    },
    {
      "type": "Feature",
      "properties": {
        "@id": "node/4236859392",
        "addr:postcode": "110048",
        "addr:street": "Greater Kailash 2",
        "amenity": "restaurant",
        "cuisine": "fish;lebanese;diner;chicken;kebab",
        "name": "Karim's Mughal Palace",
        "opening_hours": "Mo-Su 00:30-23:00",
        "phone": "180030023291"
      },
      "geometry": {
        "type": "Point",
        "coordinates": [
          77.2401446,
          28.5414989
        ]
      },
      "id": "node/4236859392"
    },
    {
      "type": "Feature",
      "properties": {
        "@id": "node/4237012489",
        "addr:postcode": "110009",
        "addr:street": "Banda Bahadur Marg",
        "amenity": "restaurant",
        "cuisine": "indian",
        "name": "Shaan-e-Awadh"
      },
      "geometry": {
        "type": "Point",
        "coordinates": [
          77.2161437,
          28.7150797
        ]
      },
      "id": "node/4237012489"
    },
    {
      "type": "Feature",
      "properties": {
        "@id": "node/4262378089",
        "amenity": "bar",
        "name": "My Love"
      },
      "geometry": {
        "type": "Point",
        "coordinates": [
          77.2103969,
          28.6384556
        ]
      },
      "id": "node/4262378089"
    },
    {
      "type": "Feature",
      "properties": {
        "@id": "node/4338105559",
        "addr:block": "D",
        "addr:city": "New Delhi",
        "addr:housenumber": "26/28",
        "addr:postcode": "110001",
        "addr:street": "Radial Road No.6",
        "amenity": "restaurant",
        "cuisine": "regional",
        "level": "0",
        "name": "Zaffran",
        "name:ca": "Zaffran"
      },
      "geometry": {
        "type": "Point",
        "coordinates": [
          77.2213244,
          28.6337656
        ]
      },
      "id": "node/4338105559"
    },
    {
      "type": "Feature",
      "properties": {
        "@id": "node/4338129371",
        "addr:city": "New Delhi",
        "addr:housenumber": "N-96",
        "addr:postcode": "110001",
        "addr:street": "2nd Floor, Munshi Lal Building, Connaught Place",
        "amenity": "restaurant",
        "cuisine": "regional",
        "diet:vegetarian": "yes",
        "name": "Barbeque Nation"
      },
      "geometry": {
        "type": "Point",
        "coordinates": [
          77.2206535,
          28.6303156
        ]
      },
      "id": "node/4338129371"
    },
    {
      "type": "Feature",
      "properties": {
        "@id": "node/4341101093",
        "amenity": "restaurant",
        "name": "Nepali Food"
      },
      "geometry": {
        "type": "Point",
        "coordinates": [
          77.2144269,
          28.6411171
        ]
      },
      "id": "node/4341101093"
    },
    {
      "type": "Feature",
      "properties": {
        "@id": "node/4350455497",
        "amenity": "bar",
        "name": "Sam's bar"
      },
      "geometry": {
        "type": "Point",
        "coordinates": [
          77.212683,
          28.6411301
        ]
      },
      "id": "node/4350455497"
    },
    {
      "type": "Feature",
      "properties": {
        "@id": "node/4350522692",
        "amenity": "restaurant",
        "name": "Malhotra"
      },
      "geometry": {
        "type": "Point",
        "coordinates": [
          77.2103053,
          28.6408661
        ]
      },
      "id": "node/4350522692"
    },
    {
      "type": "Feature",
      "properties": {
        "@id": "node/4352345756",
        "amenity": "restaurant",
        "cuisine": "pizza",
        "name": "Domino’s Pizza",
        "takeaway": "yes"
      },
      "geometry": {
        "type": "Point",
        "coordinates": [
          77.134831,
          28.6887399
        ]
      },
      "id": "node/4352345756"
    },
    {
      "type": "Feature",
      "properties": {
        "@id": "node/4352389632",
        "amenity": "restaurant",
        "cuisine": "indian",
        "name": "Bikaner Corner Wala"
      },
      "geometry": {
        "type": "Point",
        "coordinates": [
          77.1358422,
          28.6836786
        ]
      },
      "id": "node/4352389632"
    },
    {
      "type": "Feature",
      "properties": {
        "@id": "node/4389398989",
        "addr:city": "New Delhi",
        "addr:housenumber": "13",
        "addr:street": "Sansad Marg",
        "amenity": "restaurant",
        "cuisine": "punjabi",
        "name": "Pind Balluchi",
        "name:es": "Pind Baluchi",
        "name:fa": "پیند بلوچی",
        "opening_hours": "Mo-Su 12:00-23:00",
        "website": "https://www.pindballuchi.com/"
      },
      "geometry": {
        "type": "Point",
        "coordinates": [
          77.217545,
          28.6303463
        ]
      },
      "id": "node/4389398989"
    },
    {
      "type": "Feature",
      "properties": {
        "@id": "node/4391608190",
        "addr:housenumber": "50",
        "addr:street": "Khan Market",
        "amenity": "restaurant",
        "name:es": "Khan Chancha",
        "website": "http://khanchancha.in"
      },
      "geometry": {
        "type": "Point",
        "coordinates": [
          77.2251048,
          28.5995342
        ]
      },
      "id": "node/4391608190"
    },
    {
      "type": "Feature",
      "properties": {
        "@id": "node/4391613189",
        "addr:housename": "Atmaram Mansion, Scindia House",
        "addr:place": "Connaught Place",
        "addr:unit": "Shop 9A",
        "amenity": "restaurant",
        "name": "Rajdhani",
        "website": "https://www.rajdhani.co.in/"
      },
      "geometry": {
        "type": "Point",
        "coordinates": [
          77.2204846,
          28.6298048
        ]
      },
      "id": "node/4391613189"
    },
    {
      "type": "Feature",
      "properties": {
        "@id": "node/4401493065",
        "amenity": "restaurant",
        "name": "Neelam Restaurant"
      },
      "geometry": {
        "type": "Point",
        "coordinates": [
          77.2179887,
          28.6420621
        ]
      },
      "id": "node/4401493065"
    },
    {
      "type": "Feature",
      "properties": {
        "@id": "node/4438975183",
        "addr:city": "Delhi",
        "addr:postcode": "110092",
        "amenity": "restaurant",
        "capacity": "10",
        "cuisine": "North_Indian",
        "delivery": "yes",
        "name": "The Garam Masala",
        "takeaway": "yes"
      },
      "geometry": {
        "type": "Point",
        "coordinates": [
          77.3080498,
          28.6278787
        ]
      },
      "id": "node/4438975183"
    },
    {
      "type": "Feature",
      "properties": {
        "@id": "node/4438975188",
        "addr:city": "Delhi",
        "addr:postcode": "110092",
        "amenity": "restaurant",
        "capacity": "10",
        "cuisine": "Punjabi"
      },
      "geometry": {
        "type": "Point",
        "coordinates": [
          77.3081375,
          28.6279122
        ]
      },
      "id": "node/4438975188"
    },
    {
      "type": "Feature",
      "properties": {
        "@id": "node/4438975392",
        "addr:city": "Delhi",
        "addr:postcode": "110092",
        "amenity": "restaurant",
        "name": "True Blue",
        "name:fa": "ترو بلو",
        "phone": "011 65101366, 011 42171399"
      },
      "geometry": {
        "type": "Point",
        "coordinates": [
          77.3086694,
          28.6280352
        ]
      },
      "id": "node/4438975392"
    },
    {
      "type": "Feature",
      "properties": {
        "@id": "node/4438975405",
        "addr:city": "Delhi",
        "addr:postcode": "110092",
        "amenity": "restaurant"
      },
      "geometry": {
        "type": "Point",
        "coordinates": [
          77.3090522,
          28.6279719
        ]
      },
      "id": "node/4438975405"
    },
    {
      "type": "Feature",
      "properties": {
        "@id": "node/4447641390",
        "amenity": "bar",
        "level": "1",
        "name": "The Beer Cafe - Biggie",
        "survey:date": "2023-01-25"
      },
      "geometry": {
        "type": "Point",
        "coordinates": [
          77.2208954,
          28.6339043
        ]
      },
      "id": "node/4447641390"
    },
    {
      "type": "Feature",
      "properties": {
        "@id": "node/4460440889",
        "amenity": "restaurant",
        "check_date": "2025-08-14",
        "cuisine": "south_indian",
        "level": "0",
        "name": "Naivedyam",
        "name:en": "Naivedyam",
        "name:hi": "नैवेद्यम",
        "website": "https://www.naivedyamrestaurants.in/",
        "wheelchair": "no"
      },
      "geometry": {
        "type": "Point",
        "coordinates": [
          77.1949926,
          28.5549841
        ]
      },
      "id": "node/4460440889"
    },
    {
      "type": "Feature",
      "properties": {
        "@id": "node/4460476939",
        "addr:housenumber": "51-A",
        "addr:street": "Khan Market, New Delhi",
        "amenity": "restaurant",
        "cuisine": "barbecue",
        "email": "contact.smokeys@gmail.com",
        "name": "Smokeys",
        "phone": "+911124611551",
        "survey:date": "2023-01-20",
        "website": "https://smokehousegrill.in/"
      },
      "geometry": {
        "type": "Point",
        "coordinates": [
          77.2273349,
          28.6005777
        ]
      },
      "id": "node/4460476939"
    },
    {
      "type": "Feature",
      "properties": {
        "@id": "node/4460479219",
        "addr:city": "New Delhi",
        "amenity": "restaurant",
        "diet:vegan": "yes",
        "diet:vegetarian": "yes",
        "name": "Fa Yian The Chinese Restaurant",
        "website": "http://www.fayian.com"
      },
      "geometry": {
        "type": "Point",
        "coordinates": [
          77.2172007,
          28.6328293
        ]
      },
      "id": "node/4460479219"
    },
    {
      "type": "Feature",
      "properties": {
        "@id": "node/4461728238",
        "air_conditioning": "yes",
        "amenity": "restaurant",
        "cuisine": "indian",
        "diet:vegan": "yes",
        "diet:vegetarian": "yes",
        "indoor_seating": "yes",
        "name": "Gulati Spice Market",
        "name:en": "Gulati Spice Market",
        "outdoor_seating": "no",
        "smoking": "no"
      },
      "geometry": {
        "type": "Point",
        "coordinates": [
          77.2188973,
          28.5279771
        ]
      },
      "id": "node/4461728238"
    },
    {
      "type": "Feature",
      "properties": {
        "@id": "node/4470999592",
        "addr:housenumber": "710",
        "addr:postcode": "110058",
        "addr:street": "Shivaji Road",
        "amenity": "restaurant",
        "cuisine": "indian",
        "name": "Khan Chacha",
        "name:en": "Khan Chacha",
        "name:hi": "खान चाचा",
        "opening_hours": "Mo-Su 11:00-23:00",
        "website": "https://www.khanchacha.in/"
      },
      "geometry": {
        "type": "Point",
        "coordinates": [
          77.076916,
          28.629042
        ]
      },
      "id": "node/4470999592"
    },
    {
      "type": "Feature",
      "properties": {
        "@id": "node/4474590390",
        "amenity": "restaurant",
        "name": "Keswi",
        "name:en": "Keswi"
      },
      "geometry": {
        "type": "Point",
        "coordinates": [
          77.1218091,
          28.6883445
        ]
      },
      "id": "node/4474590390"
    },
    {
      "type": "Feature",
      "properties": {
        "@id": "node/4474611689",
        "amenity": "restaurant",
        "name": "NCR",
        "name:en": "NCR"
      },
      "geometry": {
        "type": "Point",
        "coordinates": [
          77.1212148,
          28.6882438
        ]
      },
      "id": "node/4474611689"
    },
    {
      "type": "Feature",
      "properties": {
        "@id": "node/4474634989",
        "amenity": "restaurant",
        "name": "Punjabi's",
        "name:en": "Punjabi's"
      },
      "geometry": {
        "type": "Point",
        "coordinates": [
          77.1214711,
          28.6882544
        ]
      },
      "id": "node/4474634989"
    },
    {
      "type": "Feature",
      "properties": {
        "@id": "node/4527096493",
        "amenity": "bar",
        "cuisine": "international",
        "name": "The Yard",
        "name:en": "The Yard"
      },
      "geometry": {
        "type": "Point",
        "coordinates": [
          77.2062561,
          28.5563371
        ]
      },
      "id": "node/4527096493"
    },
    {
      "type": "Feature",
      "properties": {
        "@id": "node/4535103689",
        "amenity": "bar",
        "name": "Route 04",
        "name:en": "Route 04"
      },
      "geometry": {
        "type": "Point",
        "coordinates": [
          77.2261248,
          28.5998743
        ]
      },
      "id": "node/4535103689"
    },
    {
      "type": "Feature",
      "properties": {
        "@id": "node/4565027989",
        "amenity": "restaurant",
        "name": "Wow Cafe",
        "name:en": "Wow Cafe",
        "name:ko": "와우카페 한식당"
      },
      "geometry": {
        "type": "Point",
        "coordinates": [
          77.2147624,
          28.6412137
        ]
      },
      "id": "node/4565027989"
    },
    {
      "type": "Feature",
      "properties": {
        "@id": "node/4599840390",
        "amenity": "restaurant",
        "name:ko": "인도방랑기"
      },
      "geometry": {
        "type": "Point",
        "coordinates": [
          77.2155347,
          28.6415909
        ]
      },
      "id": "node/4599840390"
    },
    {
      "type": "Feature",
      "properties": {
        "@id": "node/4628522789",
        "amenity": "restaurant",
        "name:ca": "Restaurant OCTOPUS"
      },
      "geometry": {
        "type": "Point",
        "coordinates": [
          77.2323979,
          28.6098311
        ]
      },
      "id": "node/4628522789"
    },
    {
      "type": "Feature",
      "properties": {
        "@id": "node/4628544689",
        "addr:city": "New Delhi",
        "addr:housenumber": "6",
        "addr:street": "Pandara Road Market",
        "amenity": "restaurant",
        "name": "Gulati",
        "opening_hours": "Mo-Su 12:00-24:00",
        "phone": "+91 112338 8836",
        "website": "http://www.gulatirestaurant.in/"
      },
      "geometry": {
        "type": "Point",
        "coordinates": [
          77.2300673,
          28.6078499
        ]
      },
      "id": "node/4628544689"
    },
    {
      "type": "Feature",
      "properties": {
        "@id": "node/4654555590",
        "amenity": "restaurant",
        "name": "U-Like",
        "name:en": "U-Like"
      },
      "geometry": {
        "type": "Point",
        "coordinates": [
          77.2110064,
          28.6452167
        ]
      },
      "id": "node/4654555590"
    },
    {
      "type": "Feature",
      "properties": {
        "@id": "node/4656714717",
        "amenity": "restaurant",
        "name": "NATRAJ restaurant",
        "name:en": "NATRAJ restaurant"
      },
      "geometry": {
        "type": "Point",
        "coordinates": [
          77.2103819,
          28.6424044
        ]
      },
      "id": "node/4656714717"
    },
    {
      "type": "Feature",
      "properties": {
        "@id": "node/4658824441",
        "amenity": "restaurant",
        "name": "Latitude"
      },
      "geometry": {
        "type": "Point",
        "coordinates": [
          77.2279557,
          28.6021414
        ]
      },
      "id": "node/4658824441"
    },
    {
      "type": "Feature",
      "properties": {
        "@id": "node/4679882984",
        "amenity": "restaurant",
        "name": "Biryani Blues"
      },
      "geometry": {
        "type": "Point",
        "coordinates": [
          77.2205834,
          28.6298227
        ]
      },
      "id": "node/4679882984"
    },
    {
      "type": "Feature",
      "properties": {
        "@id": "node/4679883320",
        "amenity": "bar",
        "name": "Beer Cafe"
      },
      "geometry": {
        "type": "Point",
        "coordinates": [
          77.2210523,
          28.6307208
        ]
      },
      "id": "node/4679883320"
    },
    {
      "type": "Feature",
      "properties": {
        "@id": "node/4686199914",
        "amenity": "restaurant",
        "name": "Diggins",
        "name:en": "Diggins"
      },
      "geometry": {
        "type": "Point",
        "coordinates": [
          77.2183297,
          28.5557691
        ]
      },
      "id": "node/4686199914"
    },
    {
      "type": "Feature",
      "properties": {
        "@id": "node/4694734989",
        "amenity": "bar",
        "name": "The Piano Man",
        "name:hi": "The Piano Man"
      },
      "geometry": {
        "type": "Point",
        "coordinates": [
          77.1968574,
          28.559495
        ]
      },
      "id": "node/4694734989"
    },
    {
      "type": "Feature",
      "properties": {
        "@id": "node/4710222497",
        "addr:city": "New Delhi",
        "amenity": "restaurant",
        "name": "Alkauser ( best biryani)",
        "name:en": "Alkauser ( best biryani)"
      },
      "geometry": {
        "type": "Point",
        "coordinates": [
          77.1936521,
          28.6018922
        ]
      },
      "id": "node/4710222497"
    },
    {
      "type": "Feature",
      "properties": {
        "@id": "node/4710222498",
        "addr:postcode": "110006",
        "amenity": "restaurant",
        "name": "Aljawahir",
        "name:en": "Aljawahir"
      },
      "geometry": {
        "type": "Point",
        "coordinates": [
          77.2335887,
          28.6495389
        ]
      },
      "id": "node/4710222498"
    },
    {
      "type": "Feature",
      "properties": {
        "@id": "node/4710223395",
        "addr:postcode": "110006",
        "amenity": "restaurant",
        "name": "Alslam Chicken",
        "name:en": "Alslam Chicken"
      },
      "geometry": {
        "type": "Point",
        "coordinates": [
          77.2336645,
          28.6482081
        ]
      },
      "id": "node/4710223395"
    },
    {
      "type": "Feature",
      "properties": {
        "@id": "node/4711571792",
        "amenity": "restaurant",
        "name": "Embassy Restaurant ( Samosa)",
        "name:en": "Embassy Restaurant ( Samosa)",
        "phone": "01123416434"
      },
      "geometry": {
        "type": "Point",
        "coordinates": [
          77.2211826,
          28.6336538
        ]
      },
      "id": "node/4711571792"
    },
    {
      "type": "Feature",
      "properties": {
        "@id": "node/4715157790",
        "amenity": "restaurant",
        "name": "Malabar Hotel",
        "name:en": "Malabar Hotel"
      },
      "geometry": {
        "type": "Point",
        "coordinates": [
          77.2182562,
          28.6423302
        ]
      },
      "id": "node/4715157790"
    },
    {
      "type": "Feature",
      "properties": {
        "@id": "node/4715157791",
        "amenity": "restaurant",
        "name": "Hotel Madras Dx",
        "name:en": "Hotel Madras Dx",
        "name:kn": "ಹೋಟೆಲ್ ಮಡ್ರಾಸ್ ಡೀಲಕ್ಸ್"
      },
      "geometry": {
        "type": "Point",
        "coordinates": [
          77.218265,
          28.642273
        ]
      },
      "id": "node/4715157791"
    },
    {
      "type": "Feature",
      "properties": {
        "@id": "node/4715162190",
        "addr:housenumber": "113",
        "addr:street": "Amir Kaur Market",
        "amenity": "restaurant",
        "description": "In side road of Babu Ram Solanki Marg near railway station",
        "name": "Hyderabadi Dum Biriyaani",
        "name:en": "Hyderabadi Dum Biriyaani",
        "phone": "+919717334256"
      },
      "geometry": {
        "type": "Point",
        "coordinates": [
          77.2182489,
          28.6424057
        ]
      },
      "id": "node/4715162190"
    },
    {
      "type": "Feature",
      "properties": {
        "@id": "node/4715173889",
        "amenity": "restaurant",
        "name": "South Indian Foods",
        "name:en": "South Indian Foods"
      },
      "geometry": {
        "type": "Point",
        "coordinates": [
          77.2182429,
          28.6424536
        ]
      },
      "id": "node/4715173889"
    },
    {
      "type": "Feature",
      "properties": {
        "@id": "node/4729010295",
        "amenity": "restaurant",
        "name": "Karim's Mughlai Restaurant"
      },
      "geometry": {
        "type": "Point",
        "coordinates": [
          77.2046567,
          28.5528178
        ]
      },
      "id": "node/4729010295"
    },
    {
      "type": "Feature",
      "properties": {
        "@id": "node/4729010298",
        "amenity": "restaurant",
        "cuisine": "korean",
        "name": "Gung the Palace",
        "name:ko": "궁 더 팰래스"
      },
      "geometry": {
        "type": "Point",
        "coordinates": [
          77.2055269,
          28.5567586
        ]
      },
      "id": "node/4729010298"
    },
    {
      "type": "Feature",
      "properties": {
        "@id": "node/4772064342",
        "amenity": "restaurant",
        "name": "Safari Restro Lounge"
      },
      "geometry": {
        "type": "Point",
        "coordinates": [
          77.2078492,
          28.6319603
        ]
      },
      "id": "node/4772064342"
    },
    {
      "type": "Feature",
      "properties": {
        "@id": "node/4772753924",
        "amenity": "restaurant",
        "cuisine": "indian",
        "diet:vegetarian": "yes",
        "name": "Rishi Vaishno Dhaba",
        "name:en": "Rishi Vaishno Dhaba"
      },
      "geometry": {
        "type": "Point",
        "coordinates": [
          77.217099,
          28.6405446
        ]
      },
      "id": "node/4772753924"
    },
    {
      "type": "Feature",
      "properties": {
        "@id": "node/4773105444",
        "amenity": "restaurant",
        "name": "Sonu",
        "name:hi": "Sonu"
      },
      "geometry": {
        "type": "Point",
        "coordinates": [
          77.2127435,
          28.6409944
        ]
      },
      "id": "node/4773105444"
    },
    {
      "type": "Feature",
      "properties": {
        "@id": "node/4783668221",
        "amenity": "restaurant",
        "cuisine": "indian",
        "name": "Kwality",
        "name:de": "Kwality",
        "name:en": "Kwality",
        "name:hi": "Kwality",
        "survey:date": "2023-01-22"
      },
      "geometry": {
        "type": "Point",
        "coordinates": [
          77.2172701,
          28.6299114
        ]
      },
      "id": "node/4783668221"
    },
    {
      "type": "Feature",
      "properties": {
        "@id": "node/4799120034",
        "addr:city": "New Delhi",
        "addr:postcode": "110005",
        "addr:street": "Arya Samaj Road",
        "alt_name": "A2B",
        "amenity": "restaurant",
        "brand": "Adyar Ananda Bhavan",
        "brand:wikidata": "Q15178238",
        "cuisine": "regional",
        "diet:vegetarian": "only",
        "name": "Adyar Ananda Bhavan",
        "operator": "Adyar Ananda Bhavan",
        "phone": "+91 98712 60803",
        "shop": "confectionery",
        "smoking": "no",
        "website": "https://aabsweets.com"
      },
      "geometry": {
        "type": "Point",
        "coordinates": [
          77.1957658,
          28.6465886
        ]
      },
      "id": "node/4799120034"
    },
    {
      "type": "Feature",
      "properties": {
        "@id": "node/4814835721",
        "amenity": "restaurant",
        "cuisine": "indian",
        "name": "Mahabelly",
        "name:en": "Mahabelly"
      },
      "geometry": {
        "type": "Point",
        "coordinates": [
          77.2169494,
          28.5271794
        ]
      },
      "id": "node/4814835721"
    },
    {
      "type": "Feature",
      "properties": {
        "@id": "node/4857522521",
        "amenity": "restaurant",
        "diet:vegetarian": "yes",
        "name": "Everest kitchen",
        "name:en": "Everest Café",
        "name:fr": "Everest Café"
      },
      "geometry": {
        "type": "Point",
        "coordinates": [
          77.2135151,
          28.6411046
        ]
      },
      "id": "node/4857522521"
    },
    {
      "type": "Feature",
      "properties": {
        "@id": "node/4857802525",
        "addr:housenumber": "71",
        "addr:postcode": "110003",
        "addr:street": "Khan Market",
        "air_conditioning": "yes",
        "amenity": "bar",
        "contact:facebook": "https://www.facebook.com/perchindelhi/",
        "contact:instagram": "perchindelhi",
        "email": "perchindelhi@gmail.com",
        "indoor_seating": "yes",
        "level": "1",
        "name": "Perch - Wine & Coffee Bar",
        "name:en": "Perch - Wine & Coffee Bar",
        "outdoor_seating": "no",
        "payment:cards": "yes",
        "payment:cash": "yes",
        "payment:qr_code": "yes",
        "phone": "+91 83739 76637",
        "toilets": "yes",
        "wheelchair": "no"
      },
      "geometry": {
        "type": "Point",
        "coordinates": [
          77.2262996,
          28.5999199
        ]
      },
      "id": "node/4857802525"
    },
    {
      "type": "Feature",
      "properties": {
        "@id": "node/4866328823",
        "addr:housenumber": "8 A/ 37",
        "addr:street": "Pusa Road",
        "amenity": "restaurant",
        "name:ar": "المطعم العراقي الراقي"
      },
      "geometry": {
        "type": "Point",
        "coordinates": [
          77.1839126,
          28.6453864
        ]
      },
      "id": "node/4866328823"
    },
    {
      "type": "Feature",
      "properties": {
        "@id": "node/4893145422",
        "amenity": "restaurant",
        "name": "Shri Krishna Daba",
        "name:en": "Shri Krishna Daba"
      },
      "geometry": {
        "type": "Point",
        "coordinates": [
          77.2399952,
          28.6478146
        ]
      },
      "id": "node/4893145422"
    },
    {
      "type": "Feature",
      "properties": {
        "@id": "node/4897911422",
        "amenity": "bar",
        "check_date": "2023-12-22",
        "level": "1",
        "name": "My Bar",
        "name:en": "My Bar - fausse adresse",
        "wheelchair": "no"
      },
      "geometry": {
        "type": "Point",
        "coordinates": [
          77.2198405,
          28.6306047
        ]
      },
      "id": "node/4897911422"
    },
    {
      "type": "Feature",
      "properties": {
        "@id": "node/4908782321",
        "amenity": "restaurant",
        "name": "Kathmandu Food Cafe",
        "name:en": "Kathmandu Food Cafe"
      },
      "geometry": {
        "type": "Point",
        "coordinates": [
          77.2126057,
          28.6418156
        ]
      },
      "id": "node/4908782321"
    },
    {
      "type": "Feature",
      "properties": {
        "@id": "node/4910109422",
        "amenity": "restaurant",
        "brand": "Pizza Hut",
        "brand:wikidata": "Q191615",
        "brand:wikipedia": "en:Pizza Hut",
        "cuisine": "pizza",
        "name": "Pizza Hut",
        "name:en": "Pizza Hut"
      },
      "geometry": {
        "type": "Point",
        "coordinates": [
          77.2796696,
          28.6177243
        ]
      },
      "id": "node/4910109422"
    },
    {
      "type": "Feature",
      "properties": {
        "@id": "node/4959734021",
        "amenity": "restaurant",
        "diet:vegetarian": "yes",
        "name": "Lazeez Affaire"
      },
      "geometry": {
        "type": "Point",
        "coordinates": [
          77.2206088,
          28.6353146
        ]
      },
      "id": "node/4959734021"
    },
    {
      "type": "Feature",
      "properties": {
        "@id": "node/4959734022",
        "amenity": "restaurant",
        "name": "Kovil",
        "name:en": "Kovil"
      },
      "geometry": {
        "type": "Point",
        "coordinates": [
          77.2212936,
          28.6333695
        ]
      },
      "id": "node/4959734022"
    },
    {
      "type": "Feature",
      "properties": {
        "@id": "node/4959768821",
        "amenity": "restaurant",
        "cuisine": "indian",
        "diet:vegetarian": "yes",
        "name": "Radjhani Thali",
        "name:en": "Radjhani Thali"
      },
      "geometry": {
        "type": "Point",
        "coordinates": [
          77.2204075,
          28.630182
        ]
      },
      "id": "node/4959768821"
    },
    {
      "type": "Feature",
      "properties": {
        "@id": "node/4967291565",
        "amenity": "restaurant",
        "name": "Giro's Italian restaurant and pizzeria",
        "phone": "+911141731035",
        "website": "www.pomodoro.co.in.uk"
      },
      "geometry": {
        "type": "Point",
        "coordinates": [
          77.2327676,
          28.557032
        ]
      },
      "id": "node/4967291565"
    },
    {
      "type": "Feature",
      "properties": {
        "@id": "node/4971952422",
        "amenity": "restaurant",
        "check_date": "2024-01-28",
        "level": "1;2",
        "name": "The Big Chill",
        "name:en": "Big Chill Restaurant",
        "wheelchair": "no"
      },
      "geometry": {
        "type": "Point",
        "coordinates": [
          77.2275063,
          28.6006451
        ]
      },
      "id": "node/4971952422"
    },
    {
      "type": "Feature",
      "properties": {
        "@id": "node/4985058921",
        "amenity": "restaurant",
        "name": "Thalee",
        "name:en": "Thalee",
        "name:fr": "Thalee"
      },
      "geometry": {
        "type": "Point",
        "coordinates": [
          77.2108048,
          28.6409867
        ]
      },
      "id": "node/4985058921"
    },
    {
      "type": "Feature",
      "properties": {
        "@id": "node/5005710330",
        "amenity": "bar",
        "name": "Tafree"
      },
      "geometry": {
        "type": "Point",
        "coordinates": [
          77.220584,
          28.6314083
        ]
      },
      "id": "node/5005710330"
    },
    {
      "type": "Feature",
      "properties": {
        "@id": "node/5017491421",
        "addr:city": "New Delhi",
        "amenity": "restaurant",
        "brand": "Pizza Hut",
        "brand:wikidata": "Q191615",
        "cuisine": "pizza",
        "name": "Pizza Hut",
        "name:en": "Pizza Hut"
      },
      "geometry": {
        "type": "Point",
        "coordinates": [
          77.2198691,
          28.6275145
        ]
      },
      "id": "node/5017491421"
    },
    {
      "type": "Feature",
      "properties": {
        "@id": "node/5017912424",
        "amenity": "restaurant",
        "cuisine": "indian",
        "name": "Mughlai Junction",
        "name:en": "Mughlai Junction",
        "opening_hours": "Mo-Su 12:00-23:00",
        "website": "http://mughlaihunction.com"
      },
      "geometry": {
        "type": "Point",
        "coordinates": [
          77.2205444,
          28.6307517
        ]
      },
      "id": "node/5017912424"
    },
    {
      "type": "Feature",
      "properties": {
        "@id": "node/5068225753",
        "amenity": "bar",
        "name": "Tamasha"
      },
      "geometry": {
        "type": "Point",
        "coordinates": [
          77.2220055,
          28.6296803
        ]
      },
      "id": "node/5068225753"
    },
    {
      "type": "Feature",
      "properties": {
        "@id": "node/5073788621",
        "amenity": "restaurant",
        "name": "saravan bhavan",
        "name:en": "saravan bhavan"
      },
      "geometry": {
        "type": "Point",
        "coordinates": [
          77.2194157,
          28.6249108
        ]
      },
      "id": "node/5073788621"
    },
    {
      "type": "Feature",
      "properties": {
        "@id": "node/5094782821",
        "amenity": "restaurant",
        "name:ar": "كنتاكي kfc"
      },
      "geometry": {
        "type": "Point",
        "coordinates": [
          77.2515575,
          28.551203
        ]
      },
      "id": "node/5094782821"
    },
    {
      "type": "Feature",
      "properties": {
        "@id": "node/5099590521",
        "amenity": "restaurant",
        "name": "Food Court!",
        "name:en": "Food Court!"
      },
      "geometry": {
        "type": "Point",
        "coordinates": [
          77.1552717,
          28.5415537
        ]
      },
      "id": "node/5099590521"
    },
    {
      "type": "Feature",
      "properties": {
        "@id": "node/5105850522",
        "amenity": "restaurant",
        "name:ar": "مطعم فلافل"
      },
      "geometry": {
        "type": "Point",
        "coordinates": [
          77.1963657,
          28.5594484
        ]
      },
      "id": "node/5105850522"
    },
    {
      "type": "Feature",
      "properties": {
        "@id": "node/5109322722",
        "amenity": "restaurant",
        "name": "Sky High",
        "website": "https://skyhighdelhi.com/"
      },
      "geometry": {
        "type": "Point",
        "coordinates": [
          77.2239752,
          28.5625301
        ]
      },
      "id": "node/5109322722"
    },
    {
      "type": "Feature",
      "properties": {
        "@id": "node/5109638828",
        "amenity": "restaurant",
        "name": "Chehel Pehel"
      },
      "geometry": {
        "type": "Point",
        "coordinates": [
          77.2360256,
          28.5372472
        ]
      },
      "id": "node/5109638828"
    },
    {
      "type": "Feature",
      "properties": {
        "@id": "node/5109833022",
        "addr:housenumber": "16",
        "addr:postcode": "110003",
        "addr:street": "Pandara Road",
        "amenity": "restaurant",
        "name": "Pindi",
        "name:en": "Pindi restaurant Delhi",
        "phone": "911123387932"
      },
      "geometry": {
        "type": "Point",
        "coordinates": [
          77.2296194,
          28.6078554
        ]
      },
      "id": "node/5109833022"
    },
    {
      "type": "Feature",
      "properties": {
        "@id": "node/5109849421",
        "addr:housename": "B",
        "addr:place": "Connaught Place",
        "addr:postcode": "110001",
        "air_conditioning": "no",
        "amenity": "restaurant",
        "diet:vegan": "yes",
        "diet:vegetarian": "yes",
        "indoor_seating": "yes",
        "level": "1",
        "name": "The Immigrant Cafe",
        "outdoor_seating": "no",
        "smoking": "yes",
        "wheelchair": "no"
      },
      "geometry": {
        "type": "Point",
        "coordinates": [
          77.218784,
          28.6341541
        ]
      },
      "id": "node/5109849421"
    },
    {
      "type": "Feature",
      "properties": {
        "@id": "node/5110975822",
        "amenity": "restaurant",
        "contact:website": "https://www.cafe27.in",
        "level": "5",
        "name": "Cafe 27 Rooftop Bar"
      },
      "geometry": {
        "type": "Point",
        "coordinates": [
          77.2407879,
          28.5537018
        ]
      },
      "id": "node/5110975822"
    },
    {
      "type": "Feature",
      "properties": {
        "@id": "node/5111038921",
        "amenity": "restaurant",
        "name": "Uncultured Cafe Sky Culture"
      },
      "geometry": {
        "type": "Point",
        "coordinates": [
          77.2414184,
          28.5525546
        ]
      },
      "id": "node/5111038921"
    },
    {
      "type": "Feature",
      "properties": {
        "@id": "node/5123980562",
        "amenity": "restaurant",
        "name": "The Mountain Cafe"
      },
      "geometry": {
        "type": "Point",
        "coordinates": [
          77.2356742,
          28.5497391
        ]
      },
      "id": "node/5123980562"
    },
    {
      "type": "Feature",
      "properties": {
        "@id": "node/5126547839",
        "amenity": "nightclub",
        "name": "GB Road",
        "name:en": "GB Road"
      },
      "geometry": {
        "type": "Point",
        "coordinates": [
          77.2206601,
          28.6504541
        ]
      },
      "id": "node/5126547839"
    },
    {
      "type": "Feature",
      "properties": {
        "@id": "node/5131701517",
        "amenity": "restaurant",
        "cuisine": "kebab",
        "name": "Aali's Kathi Kababs",
        "phone": "+91-011-2649-2859",
        "phone_1": "+91-011-4106-5757"
      },
      "geometry": {
        "type": "Point",
        "coordinates": [
          77.2300281,
          28.5438893
        ]
      },
      "id": "node/5131701517"
    },
    {
      "type": "Feature",
      "properties": {
        "@id": "node/5131717121",
        "amenity": "restaurant",
        "cuisine": "chinese;indian;mughlai",
        "name": "Dills Chawla Chik-Inn",
        "phone": "+91-011-6888-8686",
        "phone_1": "+91-99531-99431"
      },
      "geometry": {
        "type": "Point",
        "coordinates": [
          77.230178,
          28.5439159
        ]
      },
      "id": "node/5131717121"
    },
    {
      "type": "Feature",
      "properties": {
        "@id": "node/5136715528",
        "amenity": "restaurant",
        "cuisine": "indian",
        "name": "Hari Prakash Food Point"
      },
      "geometry": {
        "type": "Point",
        "coordinates": [
          77.1865603,
          28.6027056
        ]
      },
      "id": "node/5136715528"
    },
    {
      "type": "Feature",
      "properties": {
        "@id": "node/5143628924",
        "addr:postcode": "110006",
        "amenity": "restaurant",
        "cuisine": "local",
        "diet:vegetarian": "only",
        "name": "Ingerpuri",
        "start_date": "1947"
      },
      "geometry": {
        "type": "Point",
        "coordinates": [
          77.2233418,
          28.6579615
        ]
      },
      "id": "node/5143628924"
    },
    {
      "type": "Feature",
      "properties": {
        "@id": "node/5143628925",
        "addr:postcode": "110006",
        "amenity": "restaurant",
        "check_date": "2025-02-16",
        "cuisine": "local",
        "diet:vegetarian": "only",
        "internet_access": "no",
        "level": "0;1",
        "name": "Kake di Hatti",
        "name:en": "Kake di Hatti",
        "name:hi": "काके दी हट्टी",
        "opening_hours": "08:00-01:00",
        "phone": "+91 92058 17114; +91 99365 93140; +91 80106 95450",
        "start_date": "1942",
        "wheelchair": "limited"
      },
      "geometry": {
        "type": "Point",
        "coordinates": [
          77.223216,
          28.6580412
        ]
      },
      "id": "node/5143628925"
    },
    {
      "type": "Feature",
      "properties": {
        "@id": "node/5156398921",
        "addr:block": "M",
        "addr:housenumber": "32",
        "addr:place": "Greater Kailash 1",
        "air_conditioning": "yes",
        "amenity": "bar",
        "contact:mobile": "+91-9999-665-664",
        "internet_access": "wlan",
        "name": "Elation",
        "wheelchair": "no"
      },
      "geometry": {
        "type": "Point",
        "coordinates": [
          77.236558,
          28.5494669
        ]
      },
      "id": "node/5156398921"
    },
    {
      "type": "Feature",
      "properties": {
        "@id": "node/5158476428",
        "amenity": "restaurant",
        "cuisine": "tea;local;chinese;noodles;deli;indian;curry",
        "diet:vegetarian": "yes",
        "name": "Tandoori Wok",
        "operator": "Jeetu"
      },
      "geometry": {
        "type": "Point",
        "coordinates": [
          77.2291798,
          28.4948019
        ]
      },
      "id": "node/5158476428"
    },
    {
      "type": "Feature",
      "properties": {
        "@id": "node/5159969121",
        "addr:postcode": "110006",
        "amenity": "restaurant",
        "name": "Jagjit Restaurant",
        "name:en": "Jagjit Restaurant"
      },
      "geometry": {
        "type": "Point",
        "coordinates": [
          77.2231804,
          28.657558
        ]
      },
      "id": "node/5159969121"
    },
    {
      "type": "Feature",
      "properties": {
        "@id": "node/5162645434",
        "access": "private",
        "amenity": "restaurant",
        "delivery": "no",
        "name": "Canteen"
      },
      "geometry": {
        "type": "Point",
        "coordinates": [
          77.1393042,
          28.5751812
        ]
      },
      "id": "node/5162645434"
    },
    {
      "type": "Feature",
      "properties": {
        "@id": "node/5170742146",
        "addr:city": "New Delhi",
        "addr:postcode": "110010",
        "amenity": "restaurant",
        "cuisine": "indian"
      },
      "geometry": {
        "type": "Point",
        "coordinates": [
          77.1492702,
          28.5818967
        ]
      },
      "id": "node/5170742146"
    },
    {
      "type": "Feature",
      "properties": {
        "@id": "node/5210748029",
        "amenity": "restaurant",
        "name": "Wok In The Clouds"
      },
      "geometry": {
        "type": "Point",
        "coordinates": [
          77.2273808,
          28.6005614
        ]
      },
      "id": "node/5210748029"
    },
    {
      "type": "Feature",
      "properties": {
        "@id": "node/5210884422",
        "amenity": "nightclub",
        "name": "Auro"
      },
      "geometry": {
        "type": "Point",
        "coordinates": [
          77.2042189,
          28.5523017
        ]
      },
      "id": "node/5210884422"
    },
    {
      "type": "Feature",
      "properties": {
        "@id": "node/5211877822",
        "amenity": "restaurant",
        "name": "Coast Cafe"
      },
      "geometry": {
        "type": "Point",
        "coordinates": [
          77.1951171,
          28.5548149
        ]
      },
      "id": "node/5211877822"
    },
    {
      "type": "Feature",
      "properties": {
        "@id": "node/5218330121",
        "amenity": "restaurant",
        "name": "artusi"
      },
      "geometry": {
        "type": "Point",
        "coordinates": [
          77.2420236,
          28.5334254
        ]
      },
      "id": "node/5218330121"
    },
    {
      "type": "Feature",
      "properties": {
        "@id": "node/5218620423",
        "amenity": "restaurant",
        "name": "Indian Accent"
      },
      "geometry": {
        "type": "Point",
        "coordinates": [
          77.2379033,
          28.5917587
        ]
      },
      "id": "node/5218620423"
    },
    {
      "type": "Feature",
      "properties": {
        "@id": "node/5218620424",
        "amenity": "restaurant",
        "name": "fig & maple"
      },
      "geometry": {
        "type": "Point",
        "coordinates": [
          77.2418684,
          28.5333473
        ]
      },
      "id": "node/5218620424"
    },
    {
      "type": "Feature",
      "properties": {
        "@id": "node/5222845022",
        "amenity": "restaurant",
        "name": "What A Comic Show!"
      },
      "geometry": {
        "type": "Point",
        "coordinates": [
          77.2435444,
          28.5346937
        ]
      },
      "id": "node/5222845022"
    },
    {
      "type": "Feature",
      "properties": {
        "@id": "node/5224586821",
        "amenity": "bar",
        "level": "1",
        "name": "Summer House Cafe",
        "smoking": "yes"
      },
      "geometry": {
        "type": "Point",
        "coordinates": [
          77.2037676,
          28.5522587
        ]
      },
      "id": "node/5224586821"
    },
    {
      "type": "Feature",
      "properties": {
        "@id": "node/5225150123",
        "amenity": "restaurant",
        "name": "Little Saigon"
      },
      "geometry": {
        "type": "Point",
        "coordinates": [
          77.2084764,
          28.551392
        ]
      },
      "id": "node/5225150123"
    },
    {
      "type": "Feature",
      "properties": {
        "@id": "node/5227841100",
        "amenity": "restaurant",
        "name": "Fast Trax"
      },
      "geometry": {
        "type": "Point",
        "coordinates": [
          77.2907555,
          28.6069705
        ]
      },
      "id": "node/5227841100"
    },
    {
      "type": "Feature",
      "properties": {
        "@id": "node/5227842552",
        "air_conditioning": "yes",
        "amenity": "restaurant",
        "brand": "Subway",
        "brand:pa": "ਸਬਵੇਅ",
        "brand:ur": "سب وے",
        "brand:wikidata": "Q244457",
        "brand:wikipedia": "en:Subway (restaurant)",
        "level": "0",
        "name": "Subway",
        "name:pa": "ਸਬਵੇਅ",
        "name:ur": "سب وے",
        "wheelchair": "no"
      },
      "geometry": {
        "type": "Point",
        "coordinates": [
          77.2905963,
          28.6069381
        ]
      },
      "id": "node/5227842552"
    },
    {
      "type": "Feature",
      "properties": {
        "@id": "node/5234749222",
        "air_conditioning": "yes",
        "amenity": "restaurant",
        "diet:gluten_free": "yes",
        "diet:lacto_vegetarian": "yes",
        "diet:vegan": "yes",
        "level": "0",
        "name": "Getafix",
        "outdoor_seating": "no",
        "tables": "12",
        "wheelchair": "no"
      },
      "geometry": {
        "type": "Point",
        "coordinates": [
          77.240823,
          28.5529818
        ]
      },
      "id": "node/5234749222"
    },
    {
      "type": "Feature",
      "properties": {
        "@id": "node/5236238312",
        "amenity": "restaurant",
        "level": "0",
        "name": "Sanjay Chur Chur Naan",
        "name:hi": "संजय चूर चूर नान"
      },
      "geometry": {
        "type": "Point",
        "coordinates": [
          77.234189,
          28.5641526
        ]
      },
      "id": "node/5236238312"
    },
    {
      "type": "Feature",
      "properties": {
        "@id": "node/5236252843",
        "amenity": "restaurant",
        "name": "Moolchand Parantha"
      },
      "geometry": {
        "type": "Point",
        "coordinates": [
          77.2341903,
          28.5640022
        ]
      },
      "id": "node/5236252843"
    },
    {
      "type": "Feature",
      "properties": {
        "@id": "node/5236259895",
        "amenity": "restaurant",
        "name": "Roll Corner"
      },
      "geometry": {
        "type": "Point",
        "coordinates": [
          77.2344541,
          28.5634458
        ]
      },
      "id": "node/5236259895"
    },
    {
      "type": "Feature",
      "properties": {
        "@id": "node/5236666021",
        "amenity": "restaurant",
        "name": "Napoli Pizza"
      },
      "geometry": {
        "type": "Point",
        "coordinates": [
          77.1970758,
          28.5464509
        ]
      },
      "id": "node/5236666021"
    },
    {
      "type": "Feature",
      "properties": {
        "@id": "node/5257509521",
        "amenity": "restaurant",
        "name": "Anna Maya"
      },
      "geometry": {
        "type": "Point",
        "coordinates": [
          77.1224691,
          28.5546855
        ]
      },
      "id": "node/5257509521"
    },
    {
      "type": "Feature",
      "properties": {
        "@id": "node/5268504821",
        "amenity": "nightclub",
        "name": "The Dhan Mill"
      },
      "geometry": {
        "type": "Point",
        "coordinates": [
          77.184885,
          28.5040911
        ]
      },
      "id": "node/5268504821"
    },
    {
      "type": "Feature",
      "properties": {
        "@id": "node/5269340185",
        "amenity": "restaurant",
        "cuisine": "Indian;Mughlai;Chinese",
        "name": "Indian Curry",
        "name:fa": "کاری هندی",
        "phone": "+91-99994-97326;+91-99994-97327;+91-011-6502-0332"
      },
      "geometry": {
        "type": "Point",
        "coordinates": [
          77.2887478,
          28.6119427
        ]
      },
      "id": "node/5269340185"
    },
    {
      "type": "Feature",
      "properties": {
        "@id": "node/5269850622",
        "amenity": "restaurant",
        "name:ar": "مطعم الافغاني",
        "name:en": "Kabul Delhi Restaurant"
      },
      "geometry": {
        "type": "Point",
        "coordinates": [
          77.2424491,
          28.5706695
        ]
      },
      "id": "node/5269850622"
    },
    {
      "type": "Feature",
      "properties": {
        "@id": "node/5273128897",
        "amenity": "restaurant",
        "delivery": "yes",
        "name": "Shanghai Kitchen",
        "phone": "+91-99991-00369;+91-99991-00859"
      },
      "geometry": {
        "type": "Point",
        "coordinates": [
          77.2888106,
          28.6118764
        ]
      },
      "id": "node/5273128897"
    },
    {
      "type": "Feature",
      "properties": {
        "@id": "node/5297002821",
        "amenity": "restaurant",
        "name": "Masala House"
      },
      "geometry": {
        "type": "Point",
        "coordinates": [
          77.2410926,
          28.6026965
        ]
      },
      "id": "node/5297002821"
    },
    {
      "type": "Feature",
      "properties": {
        "@id": "node/5301853070",
        "amenity": "restaurant",
        "cuisine": "indian",
        "delivery": "yes",
        "name": "Chawlas Food Express",
        "phone": "+91-99116-68918;+91-99116-68918"
      },
      "geometry": {
        "type": "Point",
        "coordinates": [
          77.2872019,
          28.6117937
        ]
      },
      "id": "node/5301853070"
    },
    {
      "type": "Feature",
      "properties": {
        "@id": "node/5323174525",
        "amenity": "restaurant"
      },
      "geometry": {
        "type": "Point",
        "coordinates": [
          77.213014,
          28.6408832
        ]
      },
      "id": "node/5323174525"
    },
    {
      "type": "Feature",
      "properties": {
        "@id": "node/5329504729",
        "addr:block": "K",
        "addr:city": "New Delhi",
        "addr:housenumber": "15",
        "addr:neighbourhood": "Connaught Place",
        "addr:postcode": "110001",
        "air_conditioning": "yes",
        "amenity": "restaurant",
        "bar": "no",
        "branch": "Connaught Place",
        "brand": "Sagar Ratna",
        "check_date": "2024-09-17",
        "contact:facebook": "sagarratnaofficial",
        "cuisine": "indian",
        "diet:lactose_free": "yes",
        "diet:vegan": "yes",
        "diet:vegetarian": "yes",
        "image:menu": "d5c7fef7-7a20-4fee-92e2-b98c9c8bf758",
        "image:menu:0": "d1e87968-6f95-4826-87a7-221a8199360b",
        "image:menu:1": "3c754826-eb60-42b1-a0d8-67023b2329f4",
        "image:menu:2": "91010955-0ee4-4ed5-a373-df46286f6d81",
        "image:menu:3": "31813afa-4dbb-48eb-a5b0-64e602a9f843",
        "image:menu:4": "7c962b49-4088-4b14-bd86-bcee4ea70d98",
        "image:menu:5": "cd0420cc-d125-47ac-8bdb-3a6ee352b415",
        "image:menu:6": "a18ef6e5-43ee-4b5b-bdf6-e2a35b11bbe1",
        "image:menu:7": "da144236-2143-4bb6-979b-b2ecc69864b6",
        "internet_access": "no",
        "level": "0;1",
        "name": "Sagar Ratna",
        "name:hi": "सागर रत्ना",
        "opening_hours": "08:00-23:00",
        "operator": "M/s Sagar Ratna Restaurants Pvt Ltd",
        "outdoor_seating": "no",
        "panoramax": "0429c2c4-bab1-44a4-88bd-43afbcde61b9",
        "panoramax:0": "1fd58a46-2970-4414-b75c-954acc43cc66",
        "panoramax:1": "aaca5a4b-377f-4651-bc28-12d3407a01c2",
        "panoramax:2": "2b440358-fb82-4a12-bb6d-b7a3dbe3e0bc",
        "payment:cash": "yes",
        "payment:credit_cards": "yes",
        "payment:debit_cards": "yes",
        "payment:upi": "yes",
        "phone": "+91 11 4737 7300",
        "smoking": "no",
        "source": "survey",
        "start_date": "1986",
        "takeaway": "yes",
        "toilets": "yes",
        "toilets:access": "customers",
        "toilets:fee": "no",
        "toilets:level": "1",
        "toilets:wheelchair": "no",
        "website": "https://www.sagarratna.in",
        "wheelchair": "no"
      },
      "geometry": {
        "type": "Point",
        "coordinates": [
          77.2203635,
          28.6353446
        ]
      },
      "id": "node/5329504729"
    },
    {
      "type": "Feature",
      "properties": {
        "@id": "node/5342570523",
        "amenity": "restaurant",
        "check_date": "2024-07-21",
        "internet_access": "no",
        "name": "Brij Hub",
        "wheelchair": "no"
      },
      "geometry": {
        "type": "Point",
        "coordinates": [
          77.1207824,
          28.7364236
        ]
      },
      "id": "node/5342570523"
    },
    {
      "type": "Feature",
      "properties": {
        "@id": "node/5343112122",
        "amenity": "restaurant",
        "name": "Green Chick Chop"
      },
      "geometry": {
        "type": "Point",
        "coordinates": [
          77.129468,
          28.7370886
        ]
      },
      "id": "node/5343112122"
    },
    {
      "type": "Feature",
      "properties": {
        "@id": "node/5351075525",
        "amenity": "bar",
        "name": "#nofilter"
      },
      "geometry": {
        "type": "Point",
        "coordinates": [
          77.1965097,
          28.5467182
        ]
      },
      "id": "node/5351075525"
    },
    {
      "type": "Feature",
      "properties": {
        "@id": "node/5371750021",
        "amenity": "restaurant",
        "cuisine": "noodles;indian",
        "name": "Qutab Restaurant"
      },
      "geometry": {
        "type": "Point",
        "coordinates": [
          77.1881657,
          28.5268034
        ]
      },
      "id": "node/5371750021"
    },
    {
      "type": "Feature",
      "properties": {
        "@id": "node/5371750121",
        "amenity": "restaurant",
        "cuisine": "noodles;indian;pizza",
        "name": "Cafe Twist"
      },
      "geometry": {
        "type": "Point",
        "coordinates": [
          77.1818239,
          28.5222274
        ]
      },
      "id": "node/5371750121"
    },
    {
      "type": "Feature",
      "properties": {
        "@id": "node/5372994253",
        "addr:block": "HS",
        "addr:city": "New Delhi",
        "addr:housenumber": "16",
        "addr:place": "Kailash Colony Market",
        "addr:postcode": "110048",
        "air_conditioning": "yes",
        "amenity": "restaurant",
        "cuisine": "south_indian",
        "delivery": "yes",
        "diet:vegetarian": "only",
        "level": "0;2;3",
        "name": "Juggernaut",
        "opening_hours": "Mo-Su 06:00-24:00",
        "phone": "+91-7777-97-4444;+91-11-4131-9991;+91-11-4131-9992",
        "website": "https://juggernaut.online",
        "wheelchair": "no"
      },
      "geometry": {
        "type": "Point",
        "coordinates": [
          77.2408823,
          28.552896
        ]
      },
      "id": "node/5372994253"
    },
    {
      "type": "Feature",
      "properties": {
        "@id": "node/5374946776",
        "amenity": "restaurant",
        "cuisine": "indian",
        "name": "Aggarwal Sweets"
      },
      "geometry": {
        "type": "Point",
        "coordinates": [
          77.1709638,
          28.5590342
        ]
      },
      "id": "node/5374946776"
    },
    {
      "type": "Feature",
      "properties": {
        "@id": "node/5380366023",
        "amenity": "restaurant",
        "name": "Kohli Cafe",
        "phone": "+919999137953"
      },
      "geometry": {
        "type": "Point",
        "coordinates": [
          77.1351639,
          28.7391895
        ]
      },
      "id": "node/5380366023"
    },
    {
      "type": "Feature",
      "properties": {
        "@id": "node/5382858924",
        "amenity": "restaurant",
        "name": "Haldram’s"
      },
      "geometry": {
        "type": "Point",
        "coordinates": [
          77.2782886,
          28.615296
        ]
      },
      "id": "node/5382858924"
    },
    {
      "type": "Feature",
      "properties": {
        "@id": "node/5385787222",
        "amenity": "restaurant",
        "name": "Laidback Cafe"
      },
      "geometry": {
        "type": "Point",
        "coordinates": [
          77.2429097,
          28.5333542
        ]
      },
      "id": "node/5385787222"
    },
    {
      "type": "Feature",
      "properties": {
        "@id": "node/5400432321",
        "amenity": "restaurant",
        "name": "Garg's Veggie Point"
      },
      "geometry": {
        "type": "Point",
        "coordinates": [
          77.123207,
          28.7395318
        ]
      },
      "id": "node/5400432321"
    },
    {
      "type": "Feature",
      "properties": {
        "@id": "node/5414224654",
        "amenity": "restaurant",
        "cuisine": "mughlai",
        "name": "Alkauser"
      },
      "geometry": {
        "type": "Point",
        "coordinates": [
          77.1672697,
          28.5651736
        ]
      },
      "id": "node/5414224654"
    },
    {
      "type": "Feature",
      "properties": {
        "@id": "node/5415748243",
        "amenity": "restaurant",
        "name": "Hawkerz Boxx"
      },
      "geometry": {
        "type": "Point",
        "coordinates": [
          77.2299571,
          28.5438862
        ]
      },
      "id": "node/5415748243"
    },
    {
      "type": "Feature",
      "properties": {
        "@id": "node/5416434522",
        "amenity": "restaurant",
        "name": "The American Connection"
      },
      "geometry": {
        "type": "Point",
        "coordinates": [
          77.2529516,
          28.5421501
        ]
      },
      "id": "node/5416434522"
    },
    {
      "type": "Feature",
      "properties": {
        "@id": "node/5431387428",
        "amenity": "restaurant",
        "name": "Pearl Grand"
      },
      "geometry": {
        "type": "Point",
        "coordinates": [
          77.302603,
          28.6611454
        ]
      },
      "id": "node/5431387428"
    },
    {
      "type": "Feature",
      "properties": {
        "@id": "node/5431397421",
        "amenity": "nightclub",
        "name": "Kaanch"
      },
      "geometry": {
        "type": "Point",
        "coordinates": [
          77.3016434,
          28.6561214
        ]
      },
      "id": "node/5431397421"
    },
    {
      "type": "Feature",
      "properties": {
        "@id": "node/5437048621",
        "amenity": "restaurant",
        "cuisine": "south_indian",
        "name": "House of Anna"
      },